≤4Ìõc÷c6∆&6∆ñ∆v∆f∆6∆&f∆&&∆∆∆∆∆∆&ÊF∆Ê6∆&Ê¶6v÷
$GPRMC,160114.000,A,3745.5964,N,12225.3794,W,0.00,0.00,090419,,,A*7E

$GPGGA,160115.000,3745.5964,N,12225.3794,W,1,07,1.3,7.0,M,-25.3,M,,0000*63

$GPGSA,M,3,23,09,07,16,03,26,22,,,,,,2.4,1.3,2.0*37

$GPRMC,160115.000,A,3745.5964,N,12225.3794,W,0.00,0.00,090419,,,A*7F

$GPGGA,160116.000,3745.5964,N,12225.3794,W,1,07,1.3,7.0,M,-25.3,M,,0000*60

$GPGSA,M,3,23,09,07,16,03,26,22,,,,,,2.4,1.3,2.0*37

$GPRMC,160116.000,A,3745.5964,N,12225.3794,W,0.00,0.00,090419,,,A*7C

$GPGGA,160117.000,3745.5964,N,12225.3794,W,1,07,1.3,7.1,M,-25.3,M,,0000*60

$GPGSA,M,3,23,09,07,16,03,26,22,,,,,,2.4,1.3,2.0*37

$GPGSV,3,1,12,23,73,062,31,09,58,322,24,07,47,265,28,16,46,063,25*72

$GPGSV,3,2,12,03,30,172,17,26,21,044,23,22,11,164,20,04,42,310,27*7B

$GPGSV,3,3,12,44,45,171,33,30,15,251,,27,11,109,,06,09,275,*7F

$GPRMC,160117.000,A,3745.5964,N,12225.3794,W,0.00,0.00,090419,,,A*7D

$GPGGA,160118.000,3745.5964,N,12225.3794,W,1,06,1.4,7.1,M,-25.3,M,,0000*69

$GPGSA,M,3,23,09,07,16,03,26,,,,,,,2.7,1.4,2.3*30

$GPRMC,160118.000,A,3745.5964,N,12225.3794,W,0.00,0.00,090419,,,A*72

$GPGGA,160119.000,3745.5964,N,12225.3794,W,1,06,1.4,7.1,M,-25.3,M,,0000*68

$GPGSA,M,3,23,09,07,16,03,26,,,,,,,2.7,1.4,2.3*30

$GPRMC,160119.000,A,3745.5964,N,12225.3794,W,0.00,0.00,090419,,,A*73

$GPGGA,160120.000,3745.5964,N,12225.3794,W,1,06,1.4,7.1,M,-25.3,M,,0000*62

$GPGSA,M,3,23,09,07,16,03,26,,,,,,,2.7,1.4,2.3*30

$GPRMC,160120.000,A,3745.5964,N,12225.3794,W,0.00,0.00,090419,,,A*79

$GPGGA,160121.000,3745.5964,N,12225.3794,W,1,06,1.4,7.1,M,-25.3,M,,0000*63

$GPGSA,M,3,23,09,07,16,03,26,,,,,,,2.7,1.4,2.3*30

$GPRMC,160121.000,A,3745.5964,N,12225.3794,W,0.00,0.00,090419,,,A*78

$GPGGA,160122.000,3745.5964,N,12225.3794,W,1,06,1.4,7.2,M,-25.3,M,,0000*63

$GPGSA,M,3,23,09,07,16,03,26,,,,,,,2.7,1.4,2.3*30

$GPGSV,3,1,12,23,73,063,31,09,59,322,25,07,47,265,29,16,46,063,25*72

$GPGSV,3,2,12,03,29,172,18,26,21,044,23,04,42,311,26,22,11,164,06*78

$GPGSV,3,3,12,48,44,196,,30,15,251,,27,11,108,,06,09,275,*7A

$GPRMC,160122.000,A,3745.5964,N,12225.3794,W,0.00,0.00,090419,,,A*7B

$GPGGA,160123.000,3745.5964,N,12225.3794,W,1,06,1.4,7.2,M,-25.3,M,,0000*62

$GPGSA,M,3,23,09,07,16,03,26,,,,,,,2.7,1.4,2.3*30

$GPRMC,160123.000,A,3745.5964,N,12225.3794,W,0.00,0.00,090419,,,A*7A

$GPGGA,160124.000,3745.5964,N,12225.3794,W,1,07,1.3,7.2,M,-25.3,M,,0000*63

$GPGSA,M,3,23,09,07,16,03,26,22,,,,,,2.4,1.3,2.0*37

$GPRMC,160124.000,A,3745.5964,N,12225.3794,W,0.00,0.00,090419,,,A*7D

$GPGGA,160125.000,3745.5964,N,12225.3794,W,1,07,1.3,7.2,M,-25.3,M,,0000*62

$GPGSA,M,3,23,09,07,16,03,26,22,,,,,,2.4,1.3,2.0*37

$GPRMC,160125.000,A,3745.5964,N,12225.3794,W,0.00,0.00,090419,,,A*7C

$GPGGA,160126.000,3745.5964,N,12225.3794,W,1,07,1.3,7.2,M,-25.3,M,,0000*61

$GPGSA,M,3,23,09,07,16,03,26,22,,,,,,2.4,1.3,2.0*37

$GPRMC,160126.000,A,3745.5964,N,12225.3794,W,0.00,0.00,090419,,,A*7F

$GPGGA,160127.000,3745.5964,N,12225.3794,W,1,07,1.3,7.2,M,-25.3,M,,0000*60

$GPGSA,M,3,23,09,07,16,03,26,22,,,,,,2.4,1.3,2.0*37

$GPGSV,3,1,12,23,73,063,31,09,59,322,26,07,47,265,29,16,46,063,25*71

$GPGSV,3,2,12,03,29,172,18,26,21,044,23,22,11,164,08,04,42,311,27*77

$GPGSV,3,3,12,48,44,196,,30,15,251,,27,11,108,,06,09,275,*7A

$GPRMC,160127.000,A,3745.5964,N,12225.3794,W,0.00,0.00,090419,,,A*7E

$GPGGA,160128.000,3745.5964,N,12225.3794,W,1,07,1.3,7.2,M,-25.3,M,,0000*6F

$GPGSA,M,3,23,09,07,16,03,26,22,,,,,,2.4,1.3,2.0*37

$GPRMC,160128.000,A,3745.5964,N,12225.3794,W,0.00,0.00,090419,,,A*71

$GPGGA,160129.000,3745.5964,N,12225.3794,W,1,07,1.3,7.2,M,-25.3,M,,0000*6E

$GPGSA,M,3,23,09,07,16,03,26,22,,,,,,2.4,1.3,2.0*37

$GPRMC,160129.000,A,3745.5964,N,12225.3794,W,0.00,0.00,090419,,,A*70

$GPGGA,160130.000,3745.5964,N,12225.3794,W,1,07,1.3,7.2,M,-25.3,M,,0000*66

$GPGSA,M,3,23,09,07,16,03,26,22,,,,,,2.4,1.3,2.0*37

$GPRMC,160130.000,A,3745.5964,N,12225.3794,W,0.00,0.00,090419,,,A*78

$GPGGA,160131.000,3745.5964,N,12225.3794,W,1,07,1.3,7.2,M,-25.3,M,,0000*67

$GPGSA,M,3,23,09,07,16,03,26,22,,,,,,2.4,1.3,2.0*37

$GPRMC,160131.000,A,3745.5964,N,12225.3794,W,0.00,0.00,090419,,,A*79

$GPGGA,160132.000,3745.5964,N,12225.3794,W,1,07,1.3,7.2,M,-25.3,M,,0000*64

$GPGSA,M,3,23,09,07,16,03,26,22,,,,,,2.4,1.3,2.0*37

$GPGSV,3,1,12,23,73,063,32,09,59,322,27,07,47,265,29,16,46,063,24*72

$GPGSV,3,2,12,03,29,172,17,26,21,044,22,22,10,164,12,04,42,311,27*73

$GPGSV,3,3,12,48,44,196,,30,15,251,,27,11,108,,06,09,275,*7A

$GPRMC,160132.000,A,3745.5964,N,12225.3794,W,0.00,0.00,090419,,,A*7A

$GPGGA,160133.000,3745.5964,N,12225.3794,W,1,07,1.3,7.3,M,-25.3,M,,0000*64

$GPGSA,M,3,23,09,07,16,03,26,22,,,,,,2.4,1.3,2.0*37

$GPRMC,160133.000,A,3745.5964,N,12225.3794,W,0.00,0.00,090419,,,A*7B

$GPGGA,160134.000,3745.5964,N,12225.3794,W,1,07,1.3,7.3,M,-25.3,M,,0000*63

$GPGSA,M,3,23,09,07,16,03,26,22,,,,,,2.4,1.3,2.0*37

$GPRMC,160134.000,A,3745.5964,N,12225.3794,W,0.00,0.00,090419,,,A*7C

$GPGGA,160135.000,3745.5964,N,12225.3794,W,1,07,1.3,7.3,M,-25.3,M,,0000*62

$GPGSA,M,3,23,09,07,16,03,26,22,,,,,,2.4,1.3,2.0*37

$GPRMC,160135.000,A,3745.5964,N,12225.3794,W,0.00,0.00,090419,,,A*7D

$GPGGA,160136.000,3745.5964,N,12225.3794,W,1,07,1.3,7.3,M,-25.3,M,,0000*61

$GPGSA,M,3,23,09,07,16,03,26,22,,,,,,2.4,1.3,2.0*37

$GPRMC,160136.000,A,3745.5964,N,12225.3794,W,0.00,0.00,090419,,,A*7E

$GPGGA,160137.000,3745.5964,N,12225.3794,W,1,07,1.3,7.3,M,-25.3,M,,0000*60

$GPGSA,M,3,23,09,07,16,03,26,22,,,,,,2.4,1.3,2.0*37

$GPGSV,3,1,12,23,73,063,31,09,59,322,27,07,47,265,29,16,46,063,23*76

$GPGSV,3,2,12,03,29,172,17,26,21,044,22,22,10,164,16,04,42,311,27*77

$GPGSV,3,3,12,48,44,196,,30,15,251,,27,11,108,,06,09,275,*7A

$GPRMC,160137.000,A,3745.5964,N,12225.3794,W,0.00,0.00,090419,,,A*7F

$GPGGA,160138.000,3745.5964,N,12225.3794,W,1,07,1.3,7.3,M,-25.3,M,,0000*6F

$GPGSA,M,3,23,09,07,16,03,26,22,,,,,,2.4,1.3,2.0*37

$GPRMC,160138.000,A,3745.5964,N,12225.3794,W,0.00,0.00,090419,,,A*70

$GPGGA,160139.000,3745.5964,N,12225.3794,W,1,07,1.3,7.3,M,-25.3,M,,0000*6E

$GPGSA,M,3,23,09,07,16,03,26,22,,,,,,2.4,1.3,2.0*37

$GPRMC,160139.000,A,3745.5964,N,12225.3794,W,0.00,0.00,090419,,,A*71

$GPGGA,160140.000,3745.5964,N,12225.3794,W,1,07,1.3,7.3,M,-25.3,M,,0000*60

$GPGSA,M,3,23,09,07,16,03,26,22,,,,,,2.4,1.3,2.0*37

$GPRMC,160140.000,A,3745.5964,N,12225.3794,W,0.00,0.00,090419,,,A*7F

$GPGGA,160141.000,3745.5964,N,12225.3794,W,1,07,1.3,7.3,M,-25.3,M,,0000*61

$GPGSA,M,3,23,09,07,16,03,26,22,,,,,,2.4,1.3,2.0*37

$GPRMC,160141.000,A,3745.5964,N,12225.3794,W,0.00,0.00,090419,,,A*7E

$GPGGA,160142.000,3745.5964,N,12225.3793,W,1,07,1.3,7.3,M,-25.3,M,,0000*65

$GPGSA,M,3,23,09,07,16,03,26,22,,,,,,2.4,1.3,2.0*37

$GPGSV,3,1,12,23,73,063,31,09,59,322,28,07,47,265,29,16,46,063,23*79

$GPGSV,3,2,12,03,29,172,17,26,21,044,22,22,10,164,21,04,42,311,27*73

$GPGSV,3,3,12,57,01,307,12,48,44,196,,30,15,251,,27,11,108,*71

$GPRMC,160142.000,A,3745.5964,N,12225.3793,W,0.00,0.00,090419,,,A*7A

$GPGGA,160143.000,3745.5964,N,12225.3793,W,1,07,1.3,7.3,M,-25.3,M,,0000*64

$GPGSA,M,3,23,09,07,16,03,26,22,,,,,,2.4,1.3,2.0*37

$GPRMC,160143.000,A,3745.5964,N,12225.3793,W,0.00,0.00,090419,,,A*7B

$GPGGA,160144.000,3745.5964,N,12225.3793,W,1,07,1.3,7.3,M,-25.3,M,,0000*63

$GPGSA,M,3,23,09,07,16,03,26,22,,,,,,2.4,1.3,2.0*37

$GPRMC,160144.000,A,3745.5964,N,12225.3793,W,0.00,0.00,090419,,,A*7C

$GPGGA,160145.000,3745.5964,N,12225.3793,W,1,07,1.3,7.3,M,-25.3,M,,0000*62

$GPGSA,M,3,23,09,07,16,03,26,22,,,,,,2.4,1.3,2.0*37

$GPRMC,160145.000,A,3745.5964,N,12225.3793,W,0.00,0.00,090419,,,A*7D

$GPGGA,160146.000,3745.5964,N,12225.3793,W,1,07,1.3,7.3,M,-25.3,M,,0000*61

$GPGSA,M,3,23,09,07,16,03,26,22,,,,,,2.4,1.3,2.0*37

$GPRMC,160146.000,A,3745.5964,N,12225.3793,W,0.00,0.00,090419,,,A*7E

$GPGGA,160147.000,3745.5964,N,12225.3793,W,1,07,1.3,7.3,M,-25.3,M,,0000*60

$GPGSA,M,3,23,09,07,16,03,26,22,,,,,,2.4,1.3,2.0*37

$GPGSV,3,1,12,23,73,063,31,09,59,322,28,07,47,265,29,16,46,063,23*79

$GPGSV,3,2,12,03,29,172,17,26,21,044,21,22,10,164,23,04,42,311,27*72

$GPGSV,3,3,12,27,11,108,17,48,44,196,,30,15,251,,06,09,275,*7C

$GPRMC,160147.000,A,3745.5964,N,12225.3793,W,0.00,0.00,090419,,,A*7F

$GPGGA,160148.000,3745.5964,N,12225.3793,W,1,07,1.3,7.3,M,-25.3,M,,0000*6F

$GPGSA,M,3,23,09,07,16,03,26,22,,,,,,2.4,1.3,2.0*37

$GPRMC,160148.000,A,3745.5964,N,12225.3793,W,0.00,0.00,090419,,,A*70

$GPGGA,160149.000,3745.5964,N,12225.3793,W,1,07,1.3,7.3,M,-25.3,M,,0000*6E

$GPGSA,M,3,23,09,07,16,03,26,22,,,,,,2.4,1.3,2.0*37

$GPRMC,160149.000,A,3745.5964,N,12225.3793,W,0.00,0.00,090419,,,A*71

$GPGGA,160150.000,3745.5964,N,12225.3793,W,1,07,1.3,7.3,M,-25.3,M,,0000*66

$GPGSA,M,3,23,09,07,16,03,26,22,,,,,,2.4,1.3,2.0*37

$GPRMC,160150.000,A,3745.5964,N,12225.3793,W,0.00,0.00,090419,,,A*79

$GPGGA,160151.000,3745.5964,N,12225.3793,W,1,07,1.3,7.3,M,-25.3,M,,0000*67

$GPGSA,M,3,23,09,07,16,03,26,22,,,,,,2.4,1.3,2.0*37

$GPRMC,160151.000,A,3745.5964,N,12225.3793,W,0.00,0.00,090419,,,A*78

$GPGGA,160152.000,3745.5964,N,12225.3793,W,1,07,1.3,7.3,M,-25.3,M,,0000*64

$GPGSA,M,3,23,09,07,16,03,26,22,,,,,,2.4,1.3,2.0*37

$GPGSV,3,1,12,23,73,063,31,09,59,322,28,07,47,265,29,16,46,063,23*79

$GPGSV,3,2,12,03,29,172,18,26,21,044,21,22,10,164,24,04,42,311,26*7B

$GPGSV,3,3,12,06,09,275,19,27,11,108,18,51,43,156,,30,15,251,*78

$GPRMC,160152.000,A,3745.5964,N,12225.3793,W,0.00,0.00,090419,,,A*7B

$GPGGA,160153.000,3745.5964,N,12225.3793,W,1,07,1.3,7.3,M,-25.3,M,,0000*65

$GPGSA,M,3,23,09,07,16,03,26,22,,,,,,2.4,1.3,2.0*37

$GPRMC,160153.000,A,3745.5964,N,12225.3793,W,0.00,0.00,090419,,,A*7A

$GPGGA,160154.000,3745.5964,N,12225.3793,W,1,07,1.3,7.3,M,-25.3,M,,0000*62

$GPGSA,M,3,23,09,07,16,03,26,22,,,,,,2.4,1.3,2.0*37

$GPRMC,160154.000,A,3745.5964,N,12225.3793,W,0.00,0.00,090419,,,A*7D

$GPGGA,160155.000,3745.5964,N,12225.3793,W,1,07,1.3,7.3,M,-25.3,M,,0000*63

$GPGSA,M,3,23,09,07,16,03,26,22,,,,,,2.4,1.3,2.0*37

$GPRMC,160155.000,A,3745.5964,N,12225.3793,W,0.00,0.00,090419,,,A*7C

$GPGGA,160156.000,3745.5964,N,12225.3793,W,1,07,1.3,7.4,M,-25.3,M,,0000*67

$GPGSA,M,3,23,09,07,16,03,26,22,,,,,,2.4,1.3,2.0*37

$GPRMC,160156.000,A,3745.5964,N,12225.3793,W,0.00,0.00,090419,,,A*7F

$GPGGA,160157.000,3745.5964,N,12225.3793,W,1,07,1.3,7.4,M,-25.3,M,,0000*66

$GPGSA,M,3,23,09,07,16,03,26,22,,,,,,2.4,1.3,2.0*37

$GPGSV,3,1,12,23,73,063,31,09,59,322,29,07,47,265,29,16,46,063,23*78

$GPGSV,3,2,12,03,29,172,17,26,21,044,20,22,10,164,25,04,42,311,26*74

$GPGSV,3,3,12,06,09,275,19,27,11,108,18,51,43,156,,30,15,251,*78

$GPRMC,160157.000,A,3745.5964,N,12225.3793,W,0.00,0.00,090419,,,A*7E

$GPGGA,160158.000,3745.5964,N,12225.3793,W,1,07,1.3,7.4,M,-25.3,M,,0000*69

$GPGSA,M,3,23,09,07,16,03,26,22,,,,,,2.4,1.3,2.0*37

$GPRMC,160158.000,A,3745.5964,N,12225.3793,W,0.00,0.00,090419,,,A*71

$GPGGA,160159.000,3745.5964,N,12225.3793,W,1,07,1.3,7.4,M,-25.3,M,,0000*68

$GPGSA,M,3,23,09,07,16,03,26,22,,,,,,2.4,1.3,2.0*37

$GPRMC,160159.000,A,3745.5964,N,12225.3793,W,0.00,0.00,090419,,,A*70

$GPGGA,160200.000,3745.5964,N,12225.3793,W,1,07,1.3,7.4,M,-25.3,M,,0000*67

$GPGSA,M,3,23,09,07,16,03,26,22,,,,,,2.4,1.3,2.0*37

$GPRMC,160200.000,A,3745.5964,N,12225.3793,W,0.00,0.00,090419,,,A*7F

$GPGGA,160201.000,3745.5964,N,12225.3793,W,1,07,1.3,7.4,M,-25.3,M,,0000*66

$GPGSA,M,3,23,09,07,16,03,26,22,,,,,,2.4,1.3,2.0*37

$GPRMC,160201.000,A,3745.5964,N,12225.3793,W,0.00,0.00,090419,,,A*7E

$GPGGA,160202.000,3745.5964,N,12225.3793,W,1,07,1.3,7.4,M,-25.3,M,,0000*65

$GPGSA,M,3,23,09,07,16,03,26,22,,,,,,2.4,1.3,2.0*37

$GPGSV,3,1,12,23,73,063,31,09,59,322,29,07,47,265,29,16,46,063,23*78

$GPGSV,3,2,12,03,29,172,18,26,21,044,21,22,10,164,26,04,42,311,26*79

$GPGSV,3,3,12,27,11,108,18,51,43,156,,30,15,251,,06,09,275,*70

$GPRMC,160202.000,A,3745.5964,N,12225.3793,W,0.00,0.00,090419,,,A*7D

$GPGGA,160203.000,3745.5964,N,12225.3793,W,1,07,1.3,7.4,M,-25.3,M,,0000*64

$GPGSA,M,3,23,09,07,16,03,26,22,,,,,,2.4,1.3,2.0*37

$GPRMC,160203.000,A,3745.5964,N,12225.3793,W,0.00,0.00,090419,,,A*7C

$GPGGA,160204.000,3745.5964,N,12225.3793,W,1,07,1.3,7.4,M,-25.3,M,,0000*63

$GPGSA,M,3,23,09,07,16,03,26,22,,,,,,2.4,1.3,2.0*37

$GPRMC,160204.000,A,3745.5964,N,12225.3793,W,0.00,0.00,090419,,,A*7B

$GPGGA,160205.000,3745.5964,N,12225.3793,W,1,07,1.3,7.4,M,-25.3,M,,0000*62

$GPGSA,M,3,23,09,07,16,03,26,22,,,,,,2.4,1.3,2.0*37

$GPRMC,160205.000,A,3745.5964,N,12225.3793,W,0.00,0.00,090419,,,A*7A

$GPGGA,160206.000,3745.5964,N,12225.3793,W,1,07,1.3,7.4,M,-25.3,M,,0000*61

$GPGSA,M,3,23,09,07,16,03,26,22,,,,,,2.4,1.3,2.0*37

$GPRMC,160206.000,A,3745.5964,N,12225.3793,W,0.00,0.00,090419,,,A*79

$GPGGA,160207.000,3745.5964,N,12225.3793,W,1,07,1.3,7.4,M,-25.3,M,,0000*60

$GPGSA,M,3,23,09,07,16,03,26,22,,,,,,2.4,1.3,2.0*37

$GPGSV,3,1,12,23,73,063,30,09,59,322,29,07,47,265,29,16,46,063,23*79

$GPGSV,3,2,12,03,29,172,18,26,21,044,21,22,10,164,27,04,42,311,25*7B

$GPGSV,3,3,12,06,09,275,20,27,11,108,17,51,43,156,,30,15,251,*7D

$GPRMC,160207.000,A,3745.5964,N,12225.3793,W,0.00,0.00,090419,,,A*78

$GPGGA,160208.000,3745.5964,N,12225.3793,W,1,07,1.3,7.4,M,-25.3,M,,0000*6F

$GPGSA,M,3,23,09,07,16,03,26,22,,,,,,2.4,1.3,2.0*37

$GPRMC,160208.000,A,3745.5964,N,12225.3793,W,0.00,0.00,090419,,,A*77

$GPGGA,160209.000,3745.5964,N,12225.3793,W,1,07,1.3,7.4,M,-25.3,M,,0000*6E

$GPGSA,M,3,23,09,07,16,03,26,22,,,,,,2.4,1.3,2.0*37

$GPRMC,160209.000,A,3745.5964,N,12225.3793,W,0.00,0.00,090419,,,A*76

$GPGGA,160210.000,3745.5964,N,12225.3793,W,1,07,1.3,7.4,M,-25.3,M,,0000*66

$GPGSA,M,3,23,09,07,16,03,26,22,,,,,,2.4,1.3,2.0*37

$GPRMC,160210.000,A,3745.5964,N,12225.3793,W,0.00,0.00,090419,,,A*7E

$GPGGA,160211.000,3745.5964,N,12225.3793,W,1,07,1.3,7.4,M,-25.3,M,,0000*67

$GPGSA,M,3,23,09,07,16,03,26,22,,,,,,2.4,1.3,2.0*37

$GPRMC,160211.000,A,3745.5964,N,12225.3793,W,0.00,0.00,090419,,,A*7F

$GPGGA,160212.000,3745.5964,N,12225.3793,W,1,07,1.3,7.4,M,-25.3,M,,0000*64

$GPGSA,M,3,23,09,07,16,03,26,22,,,,,,2.4,1.3,2.0*37

$GPGSV,3,1,12,23,73,063,31,09,59,322,29,07,47,265,29,16,46,063,23*78

$GPGSV,3,2,12,03,29,172,18,26,21,044,21,22,10,164,27,04,42,311,25*7B

$GPGSV,3,3,12,06,09,275,20,27,11,108,17,51,43,156,,30,15,251,*7D

$GPRMC,160212.000,A,3745.5964,N,12225.3793,W,0.00,0.00,090419,,,A*7C

$GPGGA,160213.000,3745.5964,N,12225.3793,W,1,07,1.3,7.4,M,-25.3,M,,0000*65

$GPGSA,M,3,23,09,07,16,03,26,22,,,,,,2.4,1.3,2.0*37

$GPRMC,160213.000,A,3745.5964,N,12225.3793,W,0.00,0.00,090419,,,A*7D

$GPGGA,160214.000,3745.5964,N,12225.3793,W,1,07,1.3,7.4,M,-25.3,M,,0000*62

$GPGSA,M,3,23,09,07,16,03,26,22,,,,,,2.4,1.3,2.0*37

$GPRMC,160214.000,A,3745.5964,N,12225.3793,W,0.00,0.00,090419,,,A*7A

$GPGGA,160215.000,3745.5964,N,12225.3793,W,1,07,1.3,7.4,M,-25.3,M,,0000*63

$GPGSA,M,3,23,09,07,16,03,26,22,,,,,,2.4,1.3,2.0*37

$GPRMC,160215.000,A,3745.5964,N,12225.3793,W,0.00,0.00,090419,,,A*7B

$GPGGA,160216.000,3745.5964,N,12225.3793,W,1,07,1.3,7.4,M,-25.3,M,,0000*60

$GPGSA,M,3,23,09,07,16,03,26,22,,,,,,2.4,1.3,2.0*37

$GPRMC,160216.000,A,3745.5964,N,12225.3793,W,0.00,0.00,090419,,,A*78

$GPGGA,160217.000,3745.5964,N,12225.3793,W,1,07,1.3,7.4,M,-25.3,M,,0000*61

$GPGSA,M,3,23,09,07,16,03,26,22,,,,,,2.4,1.3,2.0*37

$GPGSV,3,1,12,23,73,063,31,09,59,322,29,07,47,265,29,16,46,063,22*79

$GPGSV,3,2,12,03,29,172,19,26,21,044,21,22,10,164,28,04,42,311,24*74

$GPGSV,3,3,12,06,09,275,19,27,11,108,17,51,43,156,,30,15,251,*77

$GPRMC,160217.000,A,3745.5964,N,12225.3793,W,0.00,0.00,090419,,,A*79

$GPGGA,160218.000,3745.5964,N,12225.3793,W,1,07,1.3,7.4,M,-25.3,M,,0000*6E

$GPGSA,M,3,23,09,07,16,03,26,22,,,,,,2.4,1.3,2.0*37

$GPRMC,160218.000,A,3745.5964,N,12225.3793,W,0.00,0.00,090419,,,A*76

$GPGGA,160219.000,3745.5964,N,12225.3793,W,1,07,1.3,7.4,M,-25.3,M,,0000*6F

$GPGSA,M,3,23,09,07,16,03,26,22,,,,,,2.4,1.3,2.0*37

$GPRMC,160219.000,A,3745.5964,N,12225.3793,W,0.00,0.00,090419,,,A*77

$GPGGA,160220.000,3745.5964,N,12225.3793,W,1,07,1.3,7.4,M,-25.3,M,,0000*65

$GPGSA,M,3,23,09,07,16,03,26,22,,,,,,2.4,1.3,2.0*37

$GPRMC,160220.000,A,3745.5964,N,12225.3793,W,0.00,0.00,090419,,,A*7D

$GPGGA,160221.000,3745.5964,N,12225.3793,W,1,07,1.3,7.4,M,-25.3,M,,0000*64

$GPGSA,M,3,23,09,07,16,03,26,22,,,,,,2.4,1.3,2.0*37

$GPRMC,160221.000,A,3745.5964,N,12225.3793,W,0.00,0.00,090419,,,A*7C

$GPGGA,160222.000,3745.5964,N,12225.3793,W,1,07,1.3,7.4,M,-25.3,M,,0000*67

$GPGSA,M,3,23,09,07,16,03,26,22,,,,,,2.4,1.3,2.0*37

$GPGSV,3,1,12,23,73,063,30,09,59,322,29,07,47,265,28,16,46,063,22*79

$GPGSV,3,2,12,03,29,172,20,26,21,044,20,22,10,164,28,04,42,311,24*7F

$GPGSV,3,3,12,06,09,275,19,27,11,108,17,57,01,307,13,44,45,171,*74

$GPRMC,160222.000,A,3745.5964,N,12225.3793,W,0.00,0.00,090419,,,A*7F

$GPGGA,160223.000,3745.5964,N,12225.3793,W,1,07,1.3,7.4,M,-25.3,M,,0000*66

$GPGSA,M,3,23,09,07,16,03,26,22,,,,,,2.4,1.3,2.0*37

$GPRMC,160223.000,A,3745.5964,N,12225.3793,W,0.00,0.00,090419,,,A*7E

$GPGGA,160224.000,3745.5964,N,12225.3793,W,1,07,1.3,7.4,M,-25.3,M,,0000*61

$GPGSA,M,3,23,09,07,16,03,26,22,,,,,,2.4,1.3,2.0*37

$GPRMC,160224.000,A,3745.5964,N,12225.3793,W,0.00,0.00,090419,,,A*79

$GPGGA,160225.000,3745.5963,N,12225.3793,W,1,07,1.3,7.4,M,-25.3,M,,0000*67

$GPGSA,M,3,23,09,07,16,03,26,22,,,,,,2.4,1.3,2.0*37

$GPRMC,160225.000,A,3745.5963,N,12225.3793,W,0.00,0.00,090419,,,A*7F

$GPGGA,160226.000,3745.5963,N,12225.3793,W,1,07,1.3,7.4,M,-25.3,M,,0000*64

$GPGSA,M,3,23,09,07,16,03,26,22,,,,,,2.4,1.3,2.0*37

$GPRMC,160226.000,A,3745.5963,N,12225.3793,W,0.00,0.00,090419,,,A*7C

$GPGGA,160227.000,3745.5963,N,12225.3793,W,1,07,1.3,7.4,M,-25.3,M,,0000*65

$GPGSA,M,3,23,09,07,16,03,26,22,,,,,,2.4,1.3,2.0*37

$GPGSV,3,1,12,23,73,063,30,09,59,322,30,07,47,265,28,16,46,063,21*72

$GPGSV,3,2,12,03,29,172,20,26,21,044,20,22,10,164,28,04,42,311,23*78

$GPGSV,3,3,12,06,09,275,18,27,11,108,17,57,01,307,13,44,45,171,34*72

$GPRMC,160227.000,A,3745.5963,N,12225.3793,W,0.00,0.00,090419,,,A*7D

$GPGGA,160228.000,3745.5963,N,12225.3793,W,1,07,1.3,7.4,M,-25.3,M,,0000*6A

$GPGSA,M,3,23,09,07,16,03,26,22,,,,,,2.4,1.3,2.0*37

$GPRMC,160228.000,A,3745.5963,N,12225.3793,W,0.00,0.00,090419,,,A*72

$GPGGA,160229.000,3745.5963,N,12225.3793,W,1,07,1.3,7.4,M,-25.3,M,,0000*6B

$GPGSA,M,3,23,09,07,16,03,26,22,,,,,,2.4,1.3,2.0*37

$GPRMC,160229.000,A,3745.5963,N,12225.3793,W,0.00,0.00,090419,,,A*73

$GPGGA,160230.000,3745.5963,N,12225.3793,W,1,07,1.3,7.4,M,-25.3,M,,0000*63

$GPGSA,M,3,23,09,07,16,03,26,22,,,,,,2.4,1.3,2.0*37

$GPRMC,160230.000,A,3745.5963,N,12225.3793,W,0.00,0.00,090419,,,A*7B

$GPGGA,160231.000,3745.5963,N,12225.3793,W,1,07,1.3,7.4,M,-25.3,M,,0000*62

$GPGSA,M,3,23,09,07,16,03,26,22,,,,,,2.4,1.3,2.0*37

$GPRMC,160231.000,A,3745.5963,N,12225.3793,W,0.00,0.00,090419,,,A*7A

$GPGGA,160232.000,3745.5963,N,12225.3793,W,1,07,1.3,7.4,M,-25.3,M,,0000*61

$GPGSA,M,3,23,09,07,16,03,26,22,,,,,,2.4,1.3,2.0*37

$GPGSV,3,1,12,23,73,063,31,09,59,322,30,07,47,265,27,16,46,063,21*7C

$GPGSV,3,2,12,03,29,172,21,26,21,044,20,22,10,164,29,04,42,311,23*78

$GPGSV,3,3,12,06,09,275,18,08,05,138,17,27,11,108,17,44,45,171,34*76

$GPRMC,160232.000,A,3745.5963,N,12225.3793,W,0.00,0.00,090419,,,A*79

$GPGGA,160233.000,3745.5963,N,12225.3793,W,1,07,1.3,7.4,M,-25.3,M,,0000*60

$GPGSA,M,3,23,09,07,16,03,26,22,,,,,,2.4,1.3,2.0*37

$GPRMC,160233.000,A,3745.5963,N,12225.3793,W,0.00,0.00,090419,,,A*78

$GPGGA,160234.000,3745.5963,N,12225.3793,W,1,07,1.3,7.4,M,-25.3,M,,0000*67

$GPGSA,M,3,23,09,07,16,03,26,22,,,,,,2.4,1.3,2.0*37

$GPRMC,160234.000,A,3745.5963,N,12225.3793,W,0.00,0.00,090419,,,A*7F

$GPGGA,160235.000,3745.5963,N,12225.3793,W,1,07,1.3,7.4,M,-25.3,M,,0000*66

$GPGSA,M,3,23,09,07,16,03,26,22,,,,,,2.4,1.3,2.0*37

$GPRMC,160235.000,A,3745.5963,N,12225.3793,W,0.00,0.00,090419,,,A*7E

$GPGGA,160236.000,3745.5964,N,12225.3792,W,1,07,1.3,7.4,M,-25.3,M,,0000*63

$GPGSA,M,3,23,09,07,16,03,26,22,,,,,,2.3,1.3,2.0*30

$GPRMC,160236.000,A,3745.5964,N,12225.3792,W,0.26,0.00,090419,,,A*7F

$GPGGA,160237.000,3745.5964,N,12225.3792,W,1,07,1.3,7.4,M,-25.3,M,,0000*62

$GPGSA,M,3,23,09,07,16,03,26,22,,,,,,2.3,1.3,2.0*30

$GPGSV,3,1,12,23,73,063,31,09,59,322,30,07,47,265,27,16,46,063,21*7C

$GPGSV,3,2,12,03,29,172,21,26,21,044,20,22,10,164,29,04,42,311,22*79

$GPGSV,3,3,12,06,09,275,18,08,05,138,18,27,11,108,17,44,45,171,34*79

$GPRMC,160237.000,A,3745.5964,N,12225.3792,W,0.03,0.00,090419,,,A*79

$GPGGA,160238.000,3745.5964,N,12225.3792,W,1,07,1.3,7.4,M,-25.3,M,,0000*6D

$GPGSA,M,3,23,09,07,16,03,26,22,,,,,,2.3,1.3,2.0*30

$GPRMC,160238.000,A,3745.5964,N,12225.3792,W,0.00,0.00,090419,,,A*75

$GPGGA,160239.000,3745.5963,N,12225.3792,W,1,07,1.3,7.4,M,-25.3,M,,0000*6B

$GPGSA,M,3,23,09,07,16,03,26,22,,,,,,2.3,1.3,2.0*30

$GPRMC,160239.000,A,3745.5963,N,12225.3792,W,0.00,0.00,090419,,,A*73

$GPGGA,160240.000,3745.5963,N,12225.3792,W,1,07,1.3,7.4,M,-25.3,M,,0000*65

$GPGSA,M,3,23,09,07,16,03,26,22,,,,,,2.3,1.3,2.0*30

$GPRMC,160240.000,A,3745.5963,N,12225.3792,W,0.00,0.00,090419,,,A*7D

$GPGGA,160241.000,3745.5962,N,12225.3798,W,1,07,1.3,7.4,M,-25.3,M,,0000*6F

$GPGSA,M,3,23,09,07,16,03,26,22,,,,,,2.3,1.3,2.0*30

$GPRMC,160241.000,A,3745.5962,N,12225.3798,W,1.62,261.68,090419,,,A*79

$GPGGA,160242.000,3745.5962,N,12225.3798,W,1,07,1.3,7.4,M,-25.3,M,,0000*6C

$GPGSA,M,3,23,09,07,16,03,26,22,,,,,,2.3,1.3,2.0*30

$GPGSV,3,1,12,23,73,063,31,09,59,322,29,07,47,265,26,16,46,063,20*74

$GPGSV,3,2,12,03,29,172,21,26,21,044,20,22,10,164,29,04,42,311,22*79

$GPGSV,3,3,12,06,09,275,18,08,05,138,19,27,11,108,17,44,45,171,34*78

$GPRMC,160242.000,A,3745.5962,N,12225.3798,W,0.18,261.68,090419,,,A*76

$GPGGA,160243.000,3745.5962,N,12225.3798,W,1,07,1.3,7.4,M,-25.3,M,,0000*6D

$GPGSA,M,3,23,09,07,16,03,26,22,,,,,,2.3,1.3,2.0*30

$GPRMC,160243.000,A,3745.5962,N,12225.3798,W,0.02,261.68,090419,,,A*7C

$GPGGA,160244.000,3745.5962,N,12225.3797,W,1,07,1.3,7.4,M,-25.3,M,,0000*65

$GPGSA,M,3,23,09,07,16,03,26,22,,,,,,2.3,1.3,2.0*30

$GPRMC,160244.000,A,3745.5962,N,12225.3797,W,0.00,261.68,090419,,,A*76

$GPGGA,160245.000,3745.5962,N,12225.3798,W,1,07,1.3,7.5,M,-25.3,M,,0000*6A

$GPGSA,M,3,23,09,07,16,03,26,22,,,,,,2.3,1.3,2.0*30

$GPRMC,160245.000,A,3745.5962,N,12225.3798,W,0.24,261.68,090419,,,A*7E

$GPGGA,160246.000,3745.5963,N,12225.3797,W,1,07,1.3,7.5,M,-25.3,M,,0000*67

$GPGSA,M,3,23,09,07,16,03,26,22,,,,,,2.3,1.3,2.0*30

$GPRMC,160246.000,A,3745.5963,N,12225.3797,W,0.35,261.68,090419,,,A*73

$GPGGA,160247.000,3745.5962,N,12225.3797,W,1,07,1.3,7.5,M,-25.3,M,,0000*67

$GPGSA,M,3,23,09,07,16,03,26,22,,,,,,2.3,1.3,2.0*30

$GPGSV,3,1,12,23,73,063,31,09,59,322,29,07,47,265,26,16,46,063,19*7E

$GPGSV,3,2,12,03,29,172,21,26,21,044,19,22,10,164,29,04,42,311,22*73

$GPGSV,3,3,12,06,09,275,19,08,05,138,19,27,11,108,17,44,45,171,34*79

$GPRMC,160247.000,A,3745.5962,N,12225.3797,W,0.04,261.68,090419,,,A*71

$GPGGA,160248.000,3745.5962,N,12225.3797,W,1,07,1.3,7.6,M,-25.3,M,,0000*6B

$GPGSA,M,3,23,09,07,16,03,26,22,,,,,,2.3,1.3,2.0*30

$GPRMC,160248.000,A,3745.5962,N,12225.3797,W,0.01,261.68,090419,,,A*7B

$GPGGA,160249.000,3745.5962,N,12225.3796,W,1,07,1.3,7.6,M,-25.3,M,,0000*6B

$GPGSA,M,3,23,09,07,16,03,26,22,,,,,,2.3,1.3,2.0*30

$GPRMC,160249.000,A,3745.5962,N,12225.3796,W,0.00,261.68,090419,,,A*7A

$GPGGA,160250.000,3745.5962,N,12225.3796,W,1,07,1.3,7.6,M,-25.3,M,,0000*63

$GPGSA,M,3,23,09,07,16,03,26,22,,,,,,2.3,1.3,2.0*30

$GPRMC,160250.000,A,3745.5962,N,12225.3796,W,0.00,261.68,090419,,,A*72

$GPGGA,160251.000,3745.5962,N,12225.3795,W,1,07,1.3,7.6,M,-25.3,M,,0000*61

$GPGSA,M,3,23,09,07,16,03,26,22,,,,,,2.3,1.3,2.0*30

$GPRMC,160251.000,A,3745.5962,N,12225.3795,W,0.24,261.68,090419,,,A*76

$GPGGA,160252.000,3745.5962,N,12225.3795,W,1,07,1.3,7.6,M,-25.3,M,,0000*62

$GPGSA,M,3,23,09,07,16,03,26,22,,,,,,2.3,1.3,2.0*30

$GPGSV,3,1,12,23,73,063,30,09,59,322,29,07,47,265,25,16,46,063,19*7C

$GPGSV,3,2,12,03,29,172,22,26,21,044,19,22,10,164,29,04,42,311,22*70

$GPGSV,3,3,12,06,09,275,20,08,05,138,19,27,11,108,17,44,45,171,34*73

$GPRMC,160252.000,A,3745.5962,N,12225.3795,W,0.03,261.68,090419,,,A*70

$GPGGA,160253.000,3745.5961,N,12225.3796,W,1,07,1.3,7.6,M,-25.3,M,,0000*63

$GPGSA,M,3,23,09,07,16,03,26,22,,,,,,2.3,1.3,2.0*30

$GPRMC,160253.000,A,3745.5961,N,12225.3796,W,0.60,261.68,090419,,,A*74

$GPGGA,160254.000,3745.5961,N,12225.3797,W,1,07,1.3,7.7,M,-25.3,M,,0000*64

$GPGSA,M,3,23,09,07,16,03,26,22,,,,,,2.3,1.3,2.0*30

$GPRMC,160254.000,A,3745.5961,N,12225.3797,W,0.32,261.68,090419,,,A*75

$GPGGA,160255.000,3745.5960,N,12225.3797,W,1,07,1.3,7.7,M,-25.3,M,,0000*64

$GPGSA,M,3,23,09,07,16,03,26,22,,,,,,2.3,1.3,2.0*30

$GPRMC,160255.000,A,3745.5960,N,12225.3797,W,0.04,261.68,090419,,,A*70

$GPGGA,160256.000,3745.5960,N,12225.3797,W,1,07,1.3,7.7,M,-25.3,M,,0000*67

$GPGSA,M,3,23,09,07,16,03,26,22,,,,,,2.3,1.3,2.0*30

$GPRMC,160256.000,A,3745.5960,N,12225.3797,W,0.00,261.68,090419,,,A*77

$GPGGA,160257.000,3745.5960,N,12225.3796,W,1,07,1.3,7.7,M,-25.3,M,,0000*67

$GPGSA,M,3,23,09,07,16,03,26,22,,,,,,2.3,1.3,2.0*30

$GPGSV,3,1,12,23,73,063,30,09,59,322,29,07,47,265,24,16,46,063,18*7C

$GPGSV,3,2,12,03,29,172,21,26,21,044,18,22,10,164,29,04,42,311,24*74

$GPGSV,3,3,12,06,09,275,20,08,05,138,19,27,11,108,17,44,45,171,41*71

$GPRMC,160257.000,A,3745.5960,N,12225.3796,W,0.00,261.68,090419,,,A*77

$GPGGA,160258.000,3745.5960,N,12225.3796,W,1,07,1.3,7.8,M,-25.3,M,,0000*67

$GPGSA,M,3,23,09,07,16,03,26,22,,,,,,2.3,1.3,2.0*30

$GPRMC,160258.000,A,3745.5960,N,12225.3796,W,0.00,261.68,090419,,,A*78

$GPGGA,160259.000,3745.5960,N,12225.3796,W,1,07,1.3,7.8,M,-25.3,M,,0000*66

$GPGSA,M,3,23,09,07,16,03,26,22,,,,,,2.3,1.3,2.0*30

$GPRMC,160259.000,A,3745.5960,N,12225.3796,W,0.00,261.68,090419,,,A*79

$GPGGA,160300.000,3745.5959,N,12225.3796,W,1,07,1.3,7.8,M,-25.3,M,,0000*61

$GPGSA,M,3,23,09,07,16,03,26,22,,,,,,2.3,1.3,2.0*30

$GPRMC,160300.000,A,3745.5959,N,12225.3796,W,0.00,261.68,090419,,,A*7E

$GPGGA,160301.000,3745.5959,N,12225.3795,W,1,07,1.3,7.8,M,-25.3,M,,0000*63

$GPGSA,M,3,23,09,07,16,03,26,22,,,,,,2.3,1.3,2.0*30

$GPRMC,160301.000,A,3745.5959,N,12225.3795,W,0.00,261.68,090419,,,A*7C

$GPGGA,160302.000,3745.5959,N,12225.3795,W,1,07,1.3,7.9,M,-25.3,M,,0000*61

$GPGSA,M,3,23,09,07,16,03,26,22,,,,,,2.3,1.3,2.0*30

$GPGSV,3,1,12,23,73,063,31,09,59,322,29,07,47,265,23,16,46,063,19*7B

$GPGSV,3,2,12,03,29,172,20,26,21,044,18,22,10,164,29,04,42,311,25*74

$GPGSV,3,3,12,06,09,275,20,08,05,138,18,27,11,108,17,44,45,171,34*72

$GPRMC,160302.000,A,3745.5959,N,12225.3795,W,0.00,261.68,090419,,,A*7F

$GPGGA,160303.000,3745.5960,N,12225.3796,W,1,07,1.3,7.9,M,-25.3,M,,0000*69

$GPGSA,M,3,23,09,07,16,03,26,22,,,,,,2.3,1.3,2.0*30

$GPRMC,160303.000,A,3745.5960,N,12225.3796,W,0.63,261.68,090419,,,A*72

$GPGGA,160304.000,3745.5960,N,12225.3796,W,1,07,1.3,7.9,M,-25.3,M,,0000*6E

$GPGSA,M,3,23,09,07,16,03,26,22,,,,,,2.3,1.3,1.9*3A

$GPRMC,160304.000,A,3745.5960,N,12225.3796,W,0.08,261.68,090419,,,A*78

$GPGGA,160305.000,3745.5961,N,12225.3794,W,1,07,1.3,7.9,M,-25.3,M,,0000*6C

$GPGSA,M,3,23,09,07,16,03,26,22,,,,,,2.3,1.3,1.9*3A

$GPRMC,160305.000,A,3745.5961,N,12225.3794,W,0.46,261.68,090419,,,A*70

$GPGGA,160306.000,3745.5961,N,12225.3792,W,1,07,1.3,7.9,M,-25.3,M,,0000*69

$GPGSA,M,3,23,09,07,16,03,26,22,,,,,,2.3,1.3,1.9*3A

$GPRMC,160306.000,A,3745.5961,N,12225.3792,W,0.58,261.68,090419,,,A*7A

$GPGGA,160307.000,3745.5960,N,12225.3792,W,1,07,1.3,7.9,M,-25.3,M,,0000*69

$GPGSA,M,3,23,09,07,16,03,26,22,,,,,,2.3,1.3,1.9*3A

$GPGSV,3,1,12,23,73,063,31,09,59,322,29,07,47,265,24,16,46,063,19*7C

$GPGSV,3,2,12,03,29,172,19,26,21,044,19,22,10,164,29,04,42,311,25*7F

$GPGSV,3,3,12,06,09,275,20,08,05,138,17,27,11,108,17,48,44,196,*7E

$GPRMC,160307.000,A,3745.5960,N,12225.3792,W,0.06,261.68,090419,,,A*71

$GPGGA,160308.000,3745.5960,N,12225.3790,W,1,07,1.3,8.0,M,-25.3,M,,0000*62

$GPGSA,M,3,23,09,07,16,03,26,22,,,,,,2.3,1.3,1.9*3A

$GPRMC,160308.000,A,3745.5960,N,12225.3790,W,0.46,261.68,090419,,,A*78

$GPGGA,160309.000,3745.5960,N,12225.3790,W,1,07,1.3,8.0,M,-25.3,M,,0000*63

$GPGSA,M,3,23,09,07,16,03,26,22,,,,,,2.3,1.3,1.9*3A

$GPRMC,160309.000,A,3745.5960,N,12225.3790,W,0.06,261.68,090419,,,A*7D

$GPGGA,160310.000,3745.5959,N,12225.3790,W,1,07,1.3,8.0,M,-25.3,M,,0000*61

$GPGSA,M,3,23,09,07,16,03,26,22,,,,,,2.3,1.3,1.9*3A

$GPRMC,160310.000,A,3745.5959,N,12225.3790,W,0.01,261.68,090419,,,A*78

$GPGGA,160311.000,3745.5959,N,12225.3790,W,1,07,1.3,8.0,M,-25.3,M,,0000*60

$GPGSA,M,3,23,09,07,16,03,26,22,,,,,,2.3,1.3,1.9*3A

$GPRMC,160311.000,A,3745.5959,N,12225.3790,W,0.00,261.68,090419,,,A*78

$GPGGA,160312.000,3745.5959,N,12225.3790,W,1,07,1.3,8.0,M,-25.3,M,,0000*63

$GPGSA,M,3,23,09,07,16,03,26,22,,,,,,2.3,1.3,1.9*3A

$GPGSV,3,1,12,23,73,063,31,09,59,322,30,07,47,265,24,16,46,063,19*74

$GPGSV,3,2,12,03,29,172,18,26,21,044,19,22,10,164,28,04,42,311,25*7F

$GPGSV,3,3,12,06,09,275,20,08,05,138,07,27,11,108,17,48,44,196,*7F

$GPRMC,160312.000,A,3745.5959,N,12225.3790,W,0.00,261.68,090419,,,A*7B

$GPGGA,160313.000,3745.5959,N,12225.3789,W,1,07,1.3,8.0,M,-25.3,M,,0000*6A

$GPGSA,M,3,23,09,07,16,03,26,22,,,,,,2.3,1.3,1.9*3A

$GPRMC,160313.000,A,3745.5959,N,12225.3789,W,0.28,261.68,090419,,,A*78

$GPGGA,160314.000,3745.5959,N,12225.3789,W,1,07,1.3,8.1,M,-25.3,M,,0000*6C

$GPGSA,M,3,23,09,07,16,03,26,22,,,,,,2.3,1.3,1.9*3A

$GPRMC,160314.000,A,3745.5959,N,12225.3789,W,0.03,261.68,090419,,,A*76

$GPGGA,160315.000,3745.5958,N,12225.3789,W,1,07,1.3,8.1,M,-25.3,M,,0000*6C

$GPGSA,M,3,23,09,07,16,03,26,22,,,,,,2.3,1.3,1.9*3A

$GPRMC,160315.000,A,3745.5958,N,12225.3789,W,0.00,261.68,090419,,,A*75

$GPGGA,160316.000,3745.5958,N,12225.3789,W,1,07,1.3,8.1,M,-25.3,M,,0000*6F

$GPGSA,M,3,23,09,07,16,03,26,22,,,,,,2.3,1.3,1.9*3A

$GPRMC,160316.000,A,3745.5958,N,12225.3789,W,0.00,261.68,090419,,,A*76

$GPGGA,160317.000,3745.5958,N,12225.3789,W,1,07,1.3,8.1,M,-25.3,M,,0000*6E

$GPGSA,M,3,23,09,07,16,03,26,22,,,,,,2.3,1.3,1.9*3A

$GPGSV,3,1,12,23,73,063,32,09,59,322,30,07,47,265,23,16,46,063,20*7A

$GPGSV,3,2,12,03,29,172,17,26,21,044,19,22,10,164,28,04,42,311,25*70

$GPGSV,3,3,12,06,09,275,19,27,11,108,17,57,01,307,13,48,44,196,*70

$GPRMC,160317.000,A,3745.5958,N,12225.3789,W,0.00,261.68,090419,,,A*77

$GPGGA,160318.000,3745.5958,N,12225.3789,W,1,07,1.3,8.1,M,-25.3,M,,0000*61

$GPGSA,M,3,23,09,07,16,03,26,22,,,,,,2.3,1.3,1.9*3A

$GPRMC,160318.000,A,3745.5958,N,12225.3789,W,0.00,261.68,090419,,,A*78

$GPGGA,160319.000,3745.5957,N,12225.3789,W,1,07,1.3,8.1,M,-25.3,M,,0000*6F

$GPGSA,M,3,23,09,07,16,03,26,22,,,,,,2.3,1.3,1.9*3A

$GPRMC,160319.000,A,3745.5957,N,12225.3789,W,0.00,261.68,090419,,,A*76

$GPGGA,160320.000,3745.5957,N,12225.3789,W,1,07,1.3,8.1,M,-25.3,M,,0000*65

$GPGSA,M,3,23,09,07,16,03,26,22,,,,,,2.3,1.3,1.9*3A

$GPRMC,160320.000,A,3745.5957,N,12225.3789,W,0.00,261.68,090419,,,A*7C

$GPGGA,160321.000,3745.5957,N,12225.3789,W,1,07,1.3,8.1,M,-25.3,M,,0000*64

$GPGSA,M,3,23,09,07,16,03,26,22,,,,,,2.3,1.3,1.9*3A

$GPRMC,160321.000,A,3745.5957,N,12225.3789,W,0.00,261.68,090419,,,A*7D

$GPGGA,160322.000,3745.5957,N,12225.3789,W,1,07,1.3,8.1,M,-25.3,M,,0000*67

$GPGSA,M,3,23,09,07,16,03,26,22,,,,,,2.3,1.3,1.9*3A

$GPGSV,3,1,12,23,73,063,31,09,59,322,30,07,47,265,23,16,46,063,20*79

$GPGSV,3,2,12,03,29,172,16,26,21,044,19,22,10,164,27,04,42,311,25*7E

$GPGSV,3,3,12,06,09,275,20,27,11,108,18,57,01,307,14,48,44,196,29*79

$GPRMC,160322.000,A,3745.5957,N,12225.3789,W,0.00,261.68,090419,,,A*7E

$GPGGA,160323.000,3745.5957,N,12225.3789,W,1,07,1.3,8.1,M,-25.3,M,,0000*66

$GPGSA,M,3,23,09,07,16,03,26,22,,,,,,2.3,1.3,1.9*3A

$GPRMC,160323.000,A,3745.5957,N,12225.3789,W,0.00,261.68,090419,,,A*7F

$GPGGA,160324.000,3745.5957,N,12225.3789,W,1,07,1.3,8.1,M,-25.3,M,,0000*61
